time(millisecond),datetime(utc),latitude,longitude,height_above_takeoff(feet),height_above_ground_at_drone_location(feet),ground_elevation_at_drone_location(feet),altitude_above_seaLevel(feet),height_sonar(feet),speed(mph),distance(feet),mileage(feet),satellites,gpslevel,voltage(v),max_altitude(feet),max_ascent(feet),max_speed(mph),max_distance(feet), xSpeed(mph), ySpeed(mph), zSpeed(mph), compass_heading(degrees), pitch(degrees), roll(degrees),isPhoto,isVideo,rc_elevator,rc_aileron,rc_throttle,rc_rudder,rc_elevator(percent),rc_aileron(percent),rc_throttle(percent),rc_rudder(percent),gimbal_heading(degrees),gimbal_pitch(degrees),battery_percent,voltageCell1,voltageCell2,voltageCell3,voltageCell4,voltageCell5,voltageCell6,current(A),battery_temperature(f),altitude(feet),ascent(feet),flycStateRaw,flycState,message
0,2022-06-17 12:35:51,60.8921963962817,68.6824838421799,0,Available with any HD 360 subscription,Available with any HD 360 subscription,108.26772,0.328084,0,0,0,16,5,0,108.26772,0,0,0,0,0,0,261.9, 15.8, -1.4,0,0,1024,1024,1024,1024,0,0,0,0,262.2,-89.9,99,,,,,,,0,32,108.26772,0,41,Motors_Started,
100,2022-06-17 12:35:52,60.8921964006829,68.6824838755223,0,,,108.26772,0.328084,0,0.0061316931096,0.0061316931096,16,5,0,108.26772,0,0,0.0061316931096,0,0,0,261.9, 15.8, -1.4,0,0,1024,1024,1024,1024,0,0,0,0,262.2,-89.9,99,,,,,,,0,32,108.26772,0,41,Motors_Started,
200,2022-06-17 12:35:52,60.8921963936123,68.6824838141001,0,,,108.26772,0.328084,0,0.0050779529184,0.0173341212896,16,5,0,108.26772,0,0,0.0061316931096,0,0,0,261.9, 15.8, -1.3,0,0,1024,1024,1024,1024,0,0,0,0,262.2,-89.9,99,,,,,,,0,32,108.26772,0,41,Motors_Started,
300,2022-06-17 12:35:52,60.8921963998199,68.6824838372126,0,,,108.26772,0.328084,0,0.0015632218348,0.0220199154028,16,5,0,108.26772,0,0,0.0061316931096,0,0,0,261.9, 15.8, -1.4,0,0,1024,1024,1024,1024,0,0,0,0,262.2,-89.9,99,,,,,,,0,32,108.26772,0,41,Motors_Started,
400,2022-06-17 12:35:52,60.8921965429365,68.6824837871264,0,,,108.26772,0.328084,0,0.054391734024,0.074987207124,16,5,0,108.26772,0,0,0.054391734024,0,0,0,261.9, 15.8, -1.3,0,0,1024,1024,1024,1024,0,0,0,0,262.2,-89.9,99,,,,,,,0,32,108.26772,0,41,Motors_Started,
500,2022-06-17 12:35:52,60.892196562876,68.6824838031798,0,,,108.26772,0.328084,0,0.06117454264,0.0828001995,16,5,0,108.26772,0,0,0.06117454264,0,0,0,261.9, 15.8, -1.4,0,0,1024,1024,1024,1024,0,0,0,0,262.2,-89.9,99,,,,,,,0,32,108.26772,0,41,Motors_Started,
600,2022-06-17 12:35:52,60.8921963847623,68.6824839140971,0,,,108.26772,0.328084,0,0.0134381894064,0.150701120308,16,5,0,108.26772,0,0,0.06117454264,0,0,0,261.9, 15.8, -1.3,0,0,1024,1024,1024,1024,0,0,0,0,262.2,-89.9,99,,,,,,,0,32,108.26772,0,41,Motors_Started,
700,2022-06-17 12:35:52,60.8921963866653,68.6824839370468,0,,,108.26772,0.328084,0,0.0171988850648,0.154833010204,16,5,0,108.26772,0,0,0.06117454264,0,0,0,262, 15.7, -1.3,0,0,1024,1024,1024,1024,0,0,0,0,262.2,-89.9,99,,,,,,,0,32,108.26772,0,41,Motors_Started,
800,2022-06-17 12:35:52,60.8921963840947,68.682483883697,0,,,108.26772,0.328084,0,0.0086062010628,0.164348102372,16,5,0,108.26772,0,0,0.06117454264,0,0,0,261.9, 15.7, -1.4,0,0,1024,1024,1024,1024,0,0,0,0,262.2,-89.9,99,,,,,,,0,32,108.26772,0,41,Motors_Started,
900,2022-06-17 12:35:52,60.8921963870151,68.6824838976411,0,,,108.26772,0.328084,0,0.010407808732,0.167042656264,16,5,0,108.26772,0,0,0.06117454264,0,0,0,261.9, 15.7, -1.4,0,0,1024,1024,1024,1024,0,0,0,0,262.2,-89.9,99,,,,,,,0,32,108.26772,0,41,Motors_Started,"Setting new Return-To-Home altitude to 160m (525 ft). Setting new Maximum Flight Altitude to 500m (1640 ft)"
1000,2022-06-17 12:35:52,60.8921962338365,68.682483860096,0,,,108.26772,0.328084,0,0.059353348356,0.223325466464,16,5,0,108.26772,0,0,0.06117454264,0,0,0,261.9, 15.7, -1.4,0,0,1024,1024,1024,1024,0,0,0,0,262.2,-89.9,99,,,,,,,0,32,108.26772,0,41,Motors_Started,
1100,2022-06-17 12:35:53,60.8921962205324,68.6824838685201,0,,,108.26772,0.328084,0,0.064292324892,0.228404534868,16,5,0,108.26772,0,0,0.064292324892,0,0,0,261.8, 15.7, -1.4,0,0,1024,1024,1024,1024,0,0,0,0,262.2,-89.9,99,,,,,,,0,32,108.26772,0,41,Motors_Started,
1200,2022-06-17 12:35:53,60.8921962381357,68.6824838468186,0,,,108.26772,0.328084,0,0.057705382424,0.235893380252,16,5,0,108.26772,0,0,0.064292324892,0,0,0,261.9, 15.8, -1.5,0,0,1024,1024,1024,1024,0,0,0,0,262.2,-89.9,99,,,,,,,0,32,108.26772,0,11,AutoTakeoff,
1300,2022-06-17 12:35:53,60.8921962265005,68.6824838484469,0,,,108.26772,0.328084,0,0.061954398308,0.240148301648,16,5,0,108.26772,0,0,0.064292324892,0,0,0,261.8, 15.7, -1.5,0,0,1024,1024,1024,1024,0,0,0,0,262.2,-89.9,99,,,,,,,0,32,108.26772,0,11,AutoTakeoff,
1400,2022-06-17 12:35:53,60.8921960965729,68.6824839763623,0,,,108.26772,0.328084,0,0.111911748988,0.2927083427,16,5,0,108.26772,0,0,0.111911748988,0,0,0,261.8, 15.7, -1.5,0,0,1024,1024,1024,1024,0,0,0,0,262.2,-89.9,99,,,,,,,0,32,108.26772,0,11,AutoTakeoff,
1500,2022-06-17 12:35:53,60.8921960724099,68.6824839848235,0,,,108.26772,0.328084,0,0.120846132476,0.301651256372,16,5,0,108.26772,0,0,0.120846132476,0,0,0,261.8, 15.6, -1.5,0,0,1024,1024,1024,1024,0,0,0,0,262.2,-89.9,99,,,,,,,0,32,108.26772,0,11,AutoTakeoff,
1600,2022-06-17 12:35:53,60.8921961077001,68.6824839472269,0,,,108.26772,0.328084,0,0.106926840692,0.31615322534,16,5,0,108.26772,0,0,0.120846132476,0,0,0,262, 15.6, -1.4,0,0,1024,1024,1024,1024,0,0,0,0,262.2,-89.9,99,,,,,,,0,32,108.26772,0,11,AutoTakeoff,
1700,2022-06-17 12:35:53,60.8921960866608,68.6824839494709,0,,,108.26772,0.328084,0,0.1145587307,0.323839577292,16,5,0,108.26772,0,0,0.120846132476,0,0,0,262.5, 15.6, -1.5,0,0,1024,1024,1024,1024,0,0,0,0,262.2,-89.9,99,,,,,,,0,32,108.26772,0,11,AutoTakeoff,
1800,2022-06-17 12:35:53,60.8921961133787,68.6824841060746,0,,,108.26772,0.328084,0,0.11334646032,0.35329397456,16,5,0,108.26772,0,0,0.120846132476,0,0,0,264, 15.6, -1.3,0,0,1024,1024,1024,1024,0,0,0,0,262.2,-89.9,99,,,,,,,0,32,108.26772,0,11,AutoTakeoff,
1900,2022-06-17 12:35:53,60.8921960822568,68.6824842243368,0,,,108.26772,0.328084,0,0.13314304888,0.37715880472,16,5,0,108.26772,0,0,0.13314304888,0,0,0,265.5, 14.6, -1.2,0,0,1024,1024,1024,1024,0,0,0,0,262.2,-89.9,99,,,,,,,0,32,108.26772,0,11,AutoTakeoff,
2000,2022-06-17 12:35:53,60.8921960823132,68.6824844674089,0,,,108.26772,0.328084,0,0.159485897492,0.42029856988,16,5,0,108.26772,0,0,0.159485897492,0,0.223694,0,266.5, 10.6, -1.1,0,0,1024,1024,1024,1024,0,0,0,0,262.3,-89.9,99,,,,,,,0,32,108.26772,0,11,AutoTakeoff,
2100,2022-06-17 12:35:54,60.8921960176167,68.6824849147669,0,,,108.26772,0.328084,0.0447388,0.23521490254,0.5031332182,16,5,0,108.26772,0,0.0447388,0.23521490254,0,0.447388,0,266.6, 3.7, -1.4,0,0,1024,1024,1024,1024,0,0,0,0,262.4,-89.9,99,,,,,,,0,32,108.26772,0,11,AutoTakeoff,
2200,2022-06-17 12:35:54,60.8921959618275,68.682485479545,0,,,108.26772,0.328084,0.07158208,0.33102363264,0.60541668604,16,5,0,108.26772,0,0.07158208,0.33102363264,-0.223694,0.671082,-0.223694,266.2, -1.9, -2,0,0,1024,1024,1024,1024,0,0,0,0,262.6,-89.9,99,,,,,,,0,32,108.26772,0,11,AutoTakeoff,
2300,2022-06-17 12:35:54,60.8921958217612,68.6824860014186,0,,,108.26772,0.328084,0.04921268,0.43680775676,0.71120081016,16,5,0,108.26772,0,0.07158208,0.43680775676,-0.223694,0.447388,-0.671082,265.9, -3, -1.1,0,0,1024,1024,1024,1024,0,0,0,0,262.7,-89.9,99,,,,,,,0,32,108.26772,0,11,AutoTakeoff,
2400,2022-06-17 12:35:54,60.8921954432207,68.6824862642556,0,,,108.26772,0.656168,0.06263432,0.55290684184,0.85697837388,15,5,0,108.26772,0,0.07158208,0.55290684184,-0.447388,0.447388,-0.894776,266, -2.2, 1.1,0,0,1024,1024,1024,1024,0,0,0,0,262.8,-89.9,99,,,,,,,0,32,108.26772,0,11,AutoTakeoff,
2500,2022-06-17 12:35:54,60.8921952343073,68.6824866147785,0.328084,,,108.595804,0.656168,0.06263432,0.649524299,0.9553642038,15,5,0,108.595804,0.328084,0.07158208,0.649524299,-0.447388,0.447388,-1.11847,266.3, -0.8, 2.3,0,0,1024,1024,1024,1024,0,0,0,0,262.9,-89.9,99,,,,,,,0,32,108.595804,0.328084,11,AutoTakeoff,
2600,2022-06-17 12:35:54,60.8921946390705,68.6824868184884,0.328084,,,108.595804,0.656168,0.04921268,0.83070540716,1.175524972,16,5,0,108.595804,0.328084,0.07158208,0.83070540716,-0.223694,0.447388,-1.11847,266.4, -0.3, 1.9,0,0,1024,1024,1024,1024,0,0,0,0,263,-89.9,99,,,,,,,0,32,108.595804,0.328084,11,AutoTakeoff,
2700,2022-06-17 12:35:54,60.8921944051742,68.6824870914919,0.656168,,,108.923888,0.984252,0.03131716,0.92753283808,1.27365817724,16,5,0,108.923888,0.656168,0.07158208,0.92753283808,-0.223694,0.223694,-1.11847,266.4, -1, 1.9,0,0,1024,1024,1024,1024,0,0,0,0,263.2,-89.9,99,,,,,,,0,32,108.923888,0.656168,11,AutoTakeoff,
2800,2022-06-17 12:35:54,60.892194092475,68.6824871339879,0.984252,,,109.251972,0.984252,0.03131716,1.02364504588,1.38799545124,15,5,0,109.251972,0.984252,0.07158208,1.02364504588,-0.223694,0.223694,-1.11847,266.2, -1.5, 2.1,0,0,1024,1024,1024,1024,0,0,0,0,263.3,-89.9,99,,,,,,,0,32,109.251972,0.984252,11,AutoTakeoff,
2900,2022-06-17 12:35:54,60.8921938471954,68.6824873207434,0.984252,,,109.251972,1.312336,0.03131716,1.11629924832,1.48342852516,15,5,0,109.251972,0.984252,0.07158208,1.11629924832,-0.223694,0.223694,-1.11847,266.1, -1.6, 2.2,0,0,1024,1024,1024,1024,0,0,0,0,263.3,-89.9,98,,,,,,,0,32,109.251972,0.984252,11,AutoTakeoff,
3000,2022-06-17 12:35:54,60.8921934354923,68.6824872236973,1.312336,,,109.580056,1.312336,0.03131716,1.23576447524,1.63461947488,15,5,0,109.580056,1.312336,0.07158208,1.23576447524,-0.223694,0.223694,-1.11847,266.1, -1.7, 2.5,0,0,1024,1024,1024,1024,0,0,0,0,263.4,-89.9,98,,,,,,,0,32,109.580056,1.312336,11,AutoTakeoff,
3100,2022-06-17 12:35:55,60.8921931711628,68.6824872961469,1.312336,,,109.580056,1.64042,0.0223694,1.32679138104,1.73191606592,15,5,0,109.580056,1.312336,0.07158208,1.32679138104,-0.223694,0,-1.11847,266.2, -1.7, 2.8,0,0,1024,1024,1024,1024,0,0,0,0,263.5,-89.9,98,,,,,,,0,32,109.580056,1.312336,11,AutoTakeoff,
3200,2022-06-17 12:35:55,60.8921929315942,68.6824867280561,1.64042,,,109.90814,1.64042,0.0223694,1.36391408564,1.8653543904,15,5,0,109.90814,1.64042,0.07158208,1.36391408564,-0.223694,0,-0.894776,266.1, -1, 3.3,0,0,1024,1024,1024,1024,0,0,0,0,263.6,-89.9,98,,,,,,,0,32,109.90814,1.64042,11,AutoTakeoff,
3300,2022-06-17 12:35:55,60.8921926807011,68.6824866690075,1.64042,,,109.90814,1.968504,0.0223694,1.4454888914,1.95749022012,15,5,0,109.90814,1.64042,0.07158208,1.4454888914,-0.223694,0,-0.894776,266.3, -0.6, 3.6,0,0,1024,1024,1024,1024,0,0,0,0,263.6,-89.9,98,,,,,,,0,32,109.90814,1.64042,11,AutoTakeoff,
3400,2022-06-17 12:35:55,60.8921924799768,68.682486683568,1.968504,,,110.236224,1.968504,0.0223694,1.51524283064,2.03077106236,15,5,0,110.236224,1.968504,0.07158208,1.51524283064,-0.223694,0,-0.894776,266.4, -0.4, 3.5,0,0,1024,1024,1024,1024,0,0,0,0,263.7,-89.9,98,,,,,,,0,32,110.236224,1.968504,11,AutoTakeoff,
3500,2022-06-17 12:35:55,60.8921922694005,68.6824866026387,1.968504,,,110.236224,2.296588,0.0223694,1.58339571996,2.10893051368,15,5,0,110.236224,1.968504,0.07158208,1.58339571996,-0.223694,0,-0.894776,266.4, -0.4, 3.1,0,0,1024,1024,1024,1024,0,0,0,0,263.8,-89.9,98,,,,,,,0,32,110.236224,1.968504,11,AutoTakeoff,
3600,2022-06-17 12:35:55,60.8921925409271,68.6824861230434,2.296588,,,110.564308,2.296588,0,1.46371723844,2.23954075408,16,5,0,110.564308,2.296588,0.07158208,1.58339571996,0,0,-1.11847,266.4, -0.8, 2.5,0,0,1024,1024,1024,1024,0,0,0,0,263.8,-89.9,98,,,,,,,0,32,110.564308,2.296588,11,AutoTakeoff,
3700,2022-06-17 12:35:55,60.892192401506,68.6824859922926,2.296588,,,110.564308,2.624672,0,1.50662078312,2.29545282936,16,5,0,110.564308,2.296588,0.07158208,1.58339571996,0,0,-0.894776,266.3, -0.9, 2.3,0,0,1024,1024,1024,1024,0,0,0,0,263.9,-89.9,98,,,,,,,0,32,110.564308,2.296588,11,AutoTakeoff,
3800,2022-06-17 12:35:55,60.8921922328473,68.6824864288158,2.624672,,,110.892392,2.624672,0,1.58688325288,2.3943898404,16,5,0,110.892392,2.624672,0.07158208,1.58688325288,0,0,-0.894776,266.2, -0.9, 2.2,0,0,1024,1024,1024,1024,0,0,0,0,264,-89.9,98,,,,,,,0,32,110.892392,2.624672,11,AutoTakeoff,
3900,2022-06-17 12:35:55,60.8921920993253,68.6824863114549,2.624672,,,110.892392,2.952756,0,1.62784454028,2.44737212556,16,5,0,110.892392,2.624672,0.07158208,1.62784454028,0,0,-0.894776,266, -1.1, 2.5,0,0,1024,1024,1024,1024,0,0,0,0,264,-89.9,98,,,,,,,0,32,110.892392,2.624672,11,AutoTakeoff,
4000,2022-06-17 12:35:55,60.892192143614,68.6824864049149,2.952756,,,111.220476,2.952756,0,1.61687669216,2.47053157512,16,5,0,111.220476,2.952756,0.07158208,1.62784454028,0,0,-1.11847,266, -1.4, 2.6,0,0,1024,1024,1024,1024,0,0,0,0,264.1,-89.9,98,,,,,,,0,32,111.220476,2.952756,11,AutoTakeoff,
4100,2022-06-17 12:35:56,60.8921920426973,68.6824862375464,2.952756,,,111.220476,3.28084,0,1.64431107624,2.51783800708,16,5,0,111.220476,2.952756,0.07158208,1.64431107624,0,0,-0.894776,266.1, -1.3, 1.8,0,0,1024,1024,1024,1024,0,0,0,0,264.1,-89.9,98,,,,,,,0,32,111.220476,2.952756,11,AutoTakeoff,
4200,2022-06-17 12:35:56,60.8921920076154,68.6824862724311,3.28084,,,111.54856,3.28084,0,1.65828089296,2.53205716764,16,5,0,111.54856,3.28084,0.07158208,1.65828089296,0,0,-0.894776,266.2, -0.5, 1.4,0,0,1024,1024,1024,1024,0,0,0,0,264.1,-89.9,98,,,,,,,0,32,111.54856,3.28084,11,AutoTakeoff,
4300,2022-06-17 12:35:56,60.8921919008777,68.682486075219,3.28084,,,111.54856,3.28084,0,1.68734913536,2.58441937404,16,5,0,111.54856,3.28084,0.07158208,1.68734913536,0,0,-0.894776,266.2, 0, 1.7,0,0,1024,1024,1024,1024,0,0,0,0,264.2,-89.9,98,,,,,,,0,32,111.54856,3.28084,11,AutoTakeoff,
4400,2022-06-17 12:35:56,60.8921916550056,68.6824863609958,3.608924,,,111.876644,3.608924,0,1.78668312804,2.68747055844,16,5,0,111.876644,3.608924,0.07158208,1.78668312804,0,0,-0.894776,266.3, 0.1, 2.3,0,0,1024,1024,1024,1024,0,0,0,0,264.2,-89.9,98,,,,,,,0,32,111.876644,3.608924,14,Waypoint,
4500,2022-06-17 12:35:56,60.8921915284322,68.6824862171215,3.608924,,,111.876644,3.608924,0,1.82536751248,2.740239589,16,5,0,111.876644,3.608924,0.07158208,1.82536751248,0,0,-0.894776,266.3, 0, 2.5,0,0,1024,1024,1024,1024,0,0,0,0,264.2,-89.9,98,,,,,,,0,32,111.876644,3.608924,14,Waypoint,
4600,2022-06-17 12:35:56,60.8921917293179,68.6824861887898,3.937008,,,112.204728,3.937008,0,1.75293312696,2.81370415828,16,5,0,112.204728,3.937008,0.07158208,1.82536751248,0,0,-0.894776,266.3, 0, 2.5,0,0,1024,1024,1024,1024,0,0,0,0,264.3,-89.9,98,,,,,,,0,32,112.204728,3.937008,14,Waypoint,
4700,2022-06-17 12:35:56,60.8921916336391,68.682486068572,3.937008,,,112.204728,3.937008,0,1.78201121188,2.85461951392,16,5,0,112.204728,3.937008,0.07158208,1.82536751248,0,0,-1.11847,266.3, -0.1, 2.4,0,0,1024,1024,1024,1024,0,0,0,0,264.3,-89.9,98,,,,,,,0,32,112.204728,3.937008,14,Waypoint,
4800,2022-06-17 12:35:56,60.8921918264756,68.6824860680866,3.937008,,,112.204728,4.265092,0,1.71345477924,2.92497384688,16,5,0,112.204728,3.937008,0.07158208,1.82536751248,0,0,-1.11847,266.3, -0.2, 1.7,0,0,1024,1024,1024,1024,0,0,0,0,264.4,-89.9,98,,,,,,,0,32,112.204728,3.937008,14,Waypoint,
4900,2022-06-17 12:35:56,60.8921917469273,68.6824859472965,4.265092,,,112.532812,4.265092,0,1.73697184036,2.9610565252,16,5,0,112.532812,4.265092,0.07158208,1.82536751248,0,0,-1.11847,266.3, 0, 1.8,0,0,1024,1024,1024,1024,0,0,0,0,264.4,-89.9,98,,,,,,,0,32,112.532812,4.265092,14,Waypoint,
5000,2022-06-17 12:35:56,60.8921917199088,68.6824857068442,4.265092,,,112.532812,4.593176,0,1.73797249656,3.0048557392,16,5,0,112.532812,4.265092,0.07158208,1.82536751248,0,0,-1.11847,266.3, 0.3, 2,0,0,1024,1024,1024,1024,0,0,0,0,264.4,-89.9,98,,,,,,,0,32,112.532812,4.265092,14,Waypoint,
5100,2022-06-17 12:35:57,60.8921916288036,68.6824855729922,4.593176,,,112.860896,4.593176,0,1.76632879668,3.04571203972,16,5,0,112.860896,4.593176,0.07158208,1.82536751248,0,0,-1.342164,266.2, 0.6, 2.1,0,0,1024,1024,1024,1024,0,0,0,0,264.5,-89.9,98,,,,,,,0,32,112.860896,4.593176,14,Waypoint,
5200,2022-06-17 12:35:57,60.8921915950646,68.682485665171,4.92126,,,113.18898,4.92126,0,1.78135176304,3.06618776216,16,5,0,113.18898,4.92126,0.07158208,1.82536751248,0,0,-1.789552,266.1, 0, 2.2,0,0,1024,1024,1024,1024,0,0,0,0,264.5,-89.9,98,,,,,,,0,32,113.18898,4.92126,14,Waypoint,
5300,2022-06-17 12:35:57,60.8921915086394,68.6824855251034,5.249344,,,113.517064,5.249344,0,1.80809388988,3.10633868208,16,5,0,113.517064,5.249344,0.07158208,1.82536751248,0,0,-2.460634,266.1, 0.5, 2.9,0,0,1024,1024,1024,1024,0,0,0,0,264.5,-89.9,98,,,,,,,0,32,113.517064,5.249344,14,Waypoint,
5400,2022-06-17 12:35:57,60.8921915254167,68.6824854284486,5.577428,,,113.845148,5.577428,0,1.799294677,3.12455390576,16,5,0,113.845148,5.577428,0.07158208,1.82536751248,0,0,-3.131716,266.2, 2.5, 3,0,0,1024,1024,1024,1024,0,0,0,0,264.5,-89.9,98,,,,,,,0,32,113.845148,5.577428,14,Waypoint,
5500,2022-06-17 12:35:57,60.8921914985248,68.6824853818788,5.905512,,,114.173232,6.233596,0,1.80771659328,3.13738199016,16,5,0,114.173232,5.905512,0.07158208,1.82536751248,0,0,-4.026492,266.1, 2.9, 1.2,0,0,1024,1024,1024,1024,0,0,0,0,264.6,-89.9,98,,,,,,,0,32,114.173232,5.905512,14,Waypoint,
5600,2022-06-17 12:35:57,60.8921917180746,68.6824852082553,6.889764,,,115.157484,6.889764,0,1.72397643312,3.22320876456,16,5,0,115.157484,6.889764,0.07158208,1.82536751248,0,0,-4.921268,265.9, 1.8, 0.4,0,0,1024,1024,1024,1024,0,0,0,0,264.6,-89.9,98,,,,,,,0,32,115.157484,6.889764,14,Waypoint,
5700,2022-06-17 12:35:57,60.8921917004958,68.6824853602208,7.545932,,,115.813652,7.545932,0,1.73431107912,3.25093186256,16,5,0,115.813652,7.545932,0.07158208,1.82536751248,0,0,-5.816044,265.9, 0.1, 0.8,0,0,1024,1024,1024,1024,0,0,0,0,264.6,-89.9,98,,,,,,,0,32,115.813652,7.545932,14,Waypoint,
5800,2022-06-17 12:35:57,60.8921917620418,68.6824851730765,8.530184,,,116.797904,8.2021,0,1.70722118324,3.291010604,16,5,0,116.797904,8.530184,0.07158208,1.82536751248,0,0,-6.487126,266.1, -1.2, 1.3,0,0,1024,1024,1024,1024,0,0,0,0,264.6,-89.9,98,,,,,,,0,32,116.797904,8.530184,14,Waypoint,
5900,2022-06-17 12:35:57,60.8921917216778,68.6824852690158,9.514436,,,117.782156,9.186352,0,1.72422577696,3.3135499748,16,5,0,117.782156,9.514436,0.07158208,1.82536751248,0,0,-6.934514,266.2, -1.2, 2.3,0,0,1024,1024,1024,1024,0,0,0,0,264.6,-89.9,98,,,,,,,0,32,117.782156,9.514436,14,Waypoint,
6000,2022-06-17 12:35:58,60.8921915211056,68.6824850747399,10.498688,,,118.766408,9.84252,0.0223694,1.79210635656,3.3944226808,16,5,0,118.766408,10.498688,0.07158208,1.82536751248,-0.223694,0,-6.934514,266.2, -1.1, 2.7,0,0,1024,1024,1024,1024,0,0,0,0,264.7,-89.9,98,,,,,,,0,32,118.766408,10.498688,14,Waypoint,
6100,2022-06-17 12:35:58,60.8921914675124,68.6824850090109,11.48294,,,119.75066,10.826772,0.0223694,1.81014441488,3.4171917104,16,5,0,119.75066,11.48294,0.07158208,1.82536751248,-0.223694,0,-7.158208,266.2, 0, 3.2,0,0,1024,1024,1024,1024,0,0,0,0,264.7,-89.9,98,,,,,,,0,32,119.75066,11.48294,14,Waypoint,
6200,2022-06-17 12:35:58,60.8921912330103,68.6824842830992,12.467192,,,120.734912,11.48294,0.03131716,1.88543969288,3.571850508,16,5,0,120.734912,12.467192,0.07158208,1.88543969288,-0.223694,-0.223694,-7.158208,266.3, 1.8, 4.2,0,0,1024,1024,1024,1024,0,0,0,0,264.7,-89.9,98,,,,,,,0,32,120.734912,12.467192,14,Waypoint,
6300,2022-06-17 12:35:58,60.8921911936184,68.6824840960014,13.451444,,,121.719164,12.139108,0.03131716,1.89872381404,3.6080381732,16,5,0,121.719164,13.451444,0.07158208,1.89872381404,-0.223694,-0.223694,-7.158208,266.3, 2.7, 4.3,0,0,1024,1024,1024,1024,0,0,0,0,264.7,-89.9,98,,,,,,,0,32,121.719164,13.451444,14,Waypoint,
6400,2022-06-17 12:35:58,60.8921910996008,68.6824837718446,14.435696,,,122.703416,13.12336,0.0223694,1.93253287024,3.675032926,15,5,0,122.703416,14.435696,0.07158208,1.93253287024,-0.223694,0,-7.158208,266.3, 2.8, 4.1,0,0,1024,1024,1024,1024,0,0,0,0,264.7,-89.9,98,,,,,,,0,32,122.703416,14.435696,14,Waypoint,
6500,2022-06-17 12:35:58,60.8921911190167,68.6824836126712,15.748032,,,124.015752,13.779528,0,1.9258366758,3.7041339768,15,5,0,124.015752,15.748032,0.07158208,1.93253287024,0,0,-7.158208,266.5, 3.2, 3.2,0,0,1024,1024,1024,1024,0,0,0,0,264.8,-89.9,98,,,,,,,0,32,124.015752,15.748032,14,Waypoint,
6600,2022-06-17 12:35:58,60.8921908958976,68.6824829938558,16.732284,,,125.000004,14.435696,0.0223694,2.0124508518,3.8408465796,15,5,0,125.000004,16.732284,0.07158208,2.0124508518,-0.223694,0,-6.934514,266.6, 3.2, 2.9,0,0,1024,1024,1024,1024,0,0,0,0,264.8,-89.9,98,,,,,,,0,32,125.000004,16.732284,14,Waypoint,
6700,2022-06-17 12:35:58,60.8921909154731,68.6824828794876,17.716536,,,125.984256,15.091864,0.0223694,2.0069554448,3.86236889,15,5,0,125.984256,17.716536,0.07158208,2.0124508518,-0.223694,0,-6.934514,266.5, 3.1, 3.3,0,0,1024,1024,1024,1024,0,0,0,0,264.8,-89.9,98,,,,,,,0,32,125.984256,17.716536,14,Waypoint,
6800,2022-06-17 12:35:58,60.8921911957647,68.6824828638078,18.700788,,,126.968508,15.748032,0,1.90533470664,3.9646654812,16,5,0,126.968508,18.700788,0.07158208,2.0124508518,0,0,-6.934514,266.4, 2.6, 2.8,0,0,1024,1024,1024,1024,0,0,0,0,264.8,-89.9,98,,,,,,,0,32,126.968508,18.700788,14,Waypoint,
6900,2022-06-17 12:35:58,60.8921912582809,68.6824828339471,19.68504,,,127.95276,16.4042,0,1.88311685816,3.9880906788,16,5,0,127.95276,19.68504,0.07158208,2.0124508518,0,0,-6.934514,266.4, 2, 2.3,0,0,1024,1024,1024,1024,0,0,0,0,264.8,-89.9,98,,,,,,,0,32,127.95276,19.68504,14,Waypoint,
7000,2022-06-17 12:35:58,60.8921913749011,68.6824832952228,20.669292,,,128.937012,16.732284,0,1.83461948128,4.0803478996,16,5,0,128.937012,20.669292,0.07158208,2.0124508518,0,0,-6.71082,266.3, 1.4, 2.1,0,0,1024,1024,1024,1024,0,0,0,0,264.9,-89.9,98,,,,,,,0,32,128.937012,20.669292,14,Waypoint,
7100,2022-06-17 12:35:59,60.8921914377552,68.6824833241697,21.653544,,,129.921264,17.388452,0,1.8114501892,4.1038715224,16,5,0,129.921264,21.653544,0.07158208,2.0124508518,0,0,-6.934514,266.3, 1.2, 2.2,0,0,1024,1024,1024,1024,0,0,0,0,264.9,-89.9,98,,,,,,,0,32,129.921264,21.653544,14,Waypoint,
7200,2022-06-17 12:35:59,60.8921913201139,68.6824837126357,22.637796,,,130.905516,18.372704,0,1.85217853696,4.1850723124,16,5,0,130.905516,22.637796,0.07158208,2.0124508518,0,0,-6.71082,266.4, 1.1, 2.6,0,0,1024,1024,1024,1024,0,0,0,0,264.9,-89.9,98,,,,,,,0,32,130.905516,22.637796,14,Waypoint,
7300,2022-06-17 12:35:59,60.892191359018,68.6824837506808,23.622048,,,131.889768,19.028872,0,1.83791344464,4.200787536,16,5,0,131.889768,23.622048,0.07158208,2.0124508518,0,0,-6.71082,266.3, 1, 2.7,0,0,1024,1024,1024,1024,0,0,0,0,264.9,-89.9,98,,,,,,,0,32,131.889768,23.622048,14,Waypoint,
7400,2022-06-17 12:35:59,60.8921912370916,68.6824838952548,24.6063,,,132.87402,20.013124,0,1.88235242244,4.252132682,15,5,0,132.87402,24.6063,0.07158208,2.0124508518,0,0,-6.71082,266.3, 1, 3,0,0,1024,1024,1024,1024,0,0,0,0,264.9,-89.9,98,,,,,,,0,32,132.87402,24.6063,14,Waypoint,
7500,2022-06-17 12:35:59,60.8921912515687,68.6824838889498,25.590552,,,133.858272,20.669292,0,1.87706370836,4.257546068,15,5,0,133.858272,25.590552,0.07158208,2.0124508518,0,0,-6.71082,266.3, 1.3, 3.5,0,0,1024,1024,1024,1024,0,0,0,0,265,-89.9,98,,,,,,,0,32,133.858272,25.590552,14,Waypoint,
7600,2022-06-17 12:35:59,60.8921913337755,68.6824838235739,26.574804,,,134.842524,21.32546,0,1.84705386488,4.2896983,16,5,0,134.842524,26.574804,0.07158208,2.0124508518,0,0,-6.71082,266.4, 1.8, 3.4,0,0,1024,1024,1024,1024,0,0,0,0,265,-89.9,98,,,,,,,0,32,134.842524,26.574804,14,Waypoint,
7700,2022-06-17 12:35:59,60.8921913617027,68.6824837794506,27.559056,,,135.826776,21.32546,0,1.83689638424,4.3025591928,16,5,0,135.826776,27.559056,0.07158208,2.0124508518,0,0,-6.71082,266.5, 2.2, 3.1,0,0,1024,1024,1024,1024,0,0,0,0,265,-89.9,98,,,,,,,0,32,135.826776,27.559056,14,Waypoint,
7800,2022-06-17 12:35:59,60.8921914716728,68.6824839879936,28.543308,,,136.811028,21.32546,0,1.79692591052,4.3571523704,16,5,0,136.811028,28.543308,0.07158208,2.0124508518,0,0,-6.71082,266.5, 2, 2.9,0,0,1024,1024,1024,1024,0,0,0,0,265,-89.9,98,,,,,,,0,32,136.811028,28.543308,14,Waypoint,
7900,2022-06-17 12:35:59,60.8921915082766,68.6824839828265,29.52756,,,137.79528,21.32546,0,1.78355976836,4.3705381976,16,5,0,137.79528,29.52756,0.07158208,2.0124508518,0,0,-6.71082,266.5, 1.8, 2.7,0,0,1024,1024,1024,1024,0,0,0,0,265,-89.9,98,,,,,,,0,32,137.79528,29.52756,14,Waypoint,
8000,2022-06-17 12:35:59,60.8921914450702,68.682484027545,30.511812,,,138.779532,21.32546,0,1.80674546464,4.3949148388,16,5,0,138.779532,30.511812,0.07158208,2.0124508518,0,0,-6.71082,266.5, 2, 2.6,0,0,1024,1024,1024,1024,0,0,0,0,265,-89.9,98,,,,,,,0,32,138.779532,30.511812,14,Waypoint,
8100,2022-06-17 12:36:00,60.892191453846,68.6824840624148,31.496064,,,139.763784,21.32546,0,1.80366803672,4.401903028,16,5,0,139.763784,31.496064,0.07158208,2.0124508518,0,0,-6.71082,266.3, 1.5, 2.8,0,0,1024,1024,1024,1024,0,0,0,0,265.1,-89.9,98,,,,,,,0,32,139.763784,31.496064,14,Waypoint,
8200,2022-06-17 12:36:00,60.892191659692,68.6824842937479,32.8084,,,141.07612,21.32546,0,1.73000005536,4.4874673352,16,5,0,141.07612,32.8084,0.07158208,2.0124508518,0,0,-6.71082,266.3, 0.9, 3.3,0,0,1024,1024,1024,1024,0,0,0,0,265.1,-89.9,98,,,,,,,0,32,141.07612,32.8084,14,Waypoint,
8300,2022-06-17 12:36:00,60.8921916697335,68.6824843559445,33.792652,,,142.060372,21.32546,0,1.7268865382,4.4991143172,16,5,0,142.060372,33.792652,0.07158208,2.0124508518,0,0,-6.71082,266.3, 0.8, 3.1,0,0,1024,1024,1024,1024,0,0,0,0,265.1,-89.9,98,,,,,,,0,32,142.060372,33.792652,14,Waypoint,
8400,2022-06-17 12:36:00,60.8921915647836,68.6824843031557,34.44882,,,142.71654,21.32546,0,1.7646654108,4.5385172056,16,5,0,142.71654,34.44882,0.07158208,2.0124508518,0,0,-6.71082,266.3, 1.1, 3.3,0,0,1024,1024,1024,1024,0,0,0,0,265.1,-89.9,98,,,,,,,0,32,142.71654,34.44882,14,Waypoint,
8500,2022-06-17 12:36:00,60.8921915540514,68.682484333431,35.761156,,,144.028876,21.32546,0,1.76883535844,4.5451773108,16,5,0,144.028876,35.761156,0.07158208,2.0124508518,0,0,-6.71082,266.4, 1.5, 3,0,0,1024,1024,1024,1024,0,0,0,0,265.1,-89.9,98,,,,,,,0,32,144.028876,35.761156,14,Waypoint,
8600,2022-06-17 12:36:00,60.8921913660343,68.6824840664903,36.745408,,,145.013128,21.32546,0,1.83571528184,4.6285434552,16,5,0,145.013128,36.745408,0.07158208,2.0124508518,0,0,-6.71082,266.3, 1.6, 3.1,0,0,1024,1024,1024,1024,0,0,0,0,265.1,-89.9,98,,,,,,,0,32,145.013128,36.745408,14,Waypoint,
8700,2022-06-17 12:36:00,60.8921913211259,68.6824841032693,37.72966,,,145.99738,21.32546,0,1.8522474346,4.6461943744,16,5,0,145.99738,37.72966,0.07158208,2.0124508518,0,0,-6.71082,266.3, 1.5, 3.5,0,0,1024,1024,1024,1024,0,0,0,0,265.1,-89.9,98,,,,,,,0,32,145.99738,37.72966,14,Waypoint,
8800,2022-06-17 12:36:00,60.8921913308504,68.6824844277949,38.713912,,,146.981632,21.32546,0,1.85104008548,4.70390435,16,5,0,146.981632,38.713912,0.07158208,2.0124508518,0,0,-6.71082,266.3, 0.9, 3.9,0,0,1024,1024,1024,1024,0,0,0,0,265.1,-89.9,98,,,,,,,0,32,146.981632,38.713912,14,Waypoint,
8900,2022-06-17 12:36:00,60.8921912889441,68.682484517353,39.698164,,,147.965884,21.32546,0,1.8672572776,4.7259515948,16,5,0,147.965884,39.698164,0.07158208,2.0124508518,0,0,-6.71082,266.3, 0.4, 4,0,0,1024,1024,1024,1024,0,0,0,0,265.2,-89.9,98,,,,,,,0,32,147.965884,39.698164,14,Waypoint,
9000,2022-06-17 12:36:01,60.8921913464476,68.6824841782675,40.682416,,,148.950136,21.32546,0,1.84339572828,4.789698316,15,5,0,148.950136,40.682416,0.07158208,2.0124508518,0,0,-6.71082,266.3, 0.2, 3.7,0,0,1024,1024,1024,1024,0,0,0,0,265.2,-89.9,98,,,,,,,0,32,148.950136,40.682416,14,Waypoint,
9100,2022-06-17 12:36:01,60.8921913175674,68.6824842082615,41.338584,,,149.606304,21.32546,0,1.85410439004,4.8014765316,15,5,0,149.606304,41.338584,0.07158208,2.0124508518,0,0,-6.71082,266.4, 0.8, 3.6,0,0,1024,1024,1024,1024,0,0,0,0,265.2,-89.9,98,,,,,,,0,32,149.606304,41.338584,14,Waypoint,
9200,2022-06-17 12:36:01,60.8921915335411,68.682483948748,42.65092,,,150.91864,21.32546,0,1.77426842948,4.8927495004,15,5,0,150.91864,42.65092,0.07158208,2.0124508518,0,0,-6.71082,266.2, 0.8, 3.5,0,0,1024,1024,1024,1024,0,0,0,0,265.2,-89.9,98,,,,,,,0,32,150.91864,42.65092,14,Waypoint,
9300,2022-06-17 12:36:01,60.8921915085609,68.6824839323728,43.635172,,,151.902892,21.32546,0,1.78335307544,4.9023295532,15,5,0,151.902892,43.635172,0.07158208,2.0124508518,0,0,-6.71082,266.2, 0.9, 3.5,0,0,1024,1024,1024,1024,0,0,0,0,265.2,-89.9,98,,,,,,,0,32,151.902892,43.635172,14,Waypoint,
9400,2022-06-17 12:36:01,60.8921911960977,68.6824843082976,44.29134,,,152.55906,21.32546,0,1.89908798728,5.0344161716,16,5,0,152.55906,44.29134,0.07158208,2.0124508518,0,0,-6.71082,266.4, 0.9, 3.9,0,0,1024,1024,1024,1024,0,0,0,0,265.2,-89.9,98,,,,,,,0,32,152.55906,44.29134,14,Waypoint,
9500,2022-06-17 12:36:01,60.8921911347135,68.6824842993119,45.275592,,,153.543312,21.32546,0,1.92139441844,5.0568571172,16,5,0,153.543312,45.275592,0.07158208,2.0124508518,0,0,-6.71082,266.2, 0.6, 4.7,0,0,1024,1024,1024,1024,0,0,0,0,265.2,-89.9,98,,,,,,,0,32,153.543312,45.275592,14,Waypoint,
9600,2022-06-17 12:36:01,60.8921913495826,68.6824844591324,46.587928,,,154.855648,21.32546,0,1.8445374606,5.1402232616,16,5,0,154.855648,46.587928,0.07158208,2.0124508518,0,0,-6.71082,266.3, 1.1, 4.6,0,0,1024,1024,1024,1024,0,0,0,0,265.2,-89.9,98,,,,,,,0,32,154.855648,46.587928,14,Waypoint,
9700,2022-06-17 12:36:01,60.8921913204341,68.6824843938478,47.57218,,,155.8399,21.32546,0,1.85450793336,5.1559712936,16,5,0,155.8399,47.57218,0.07158208,2.0124508518,0,0,-6.71082,266.5, 1.8, 3.9,0,0,1024,1024,1024,1024,0,0,0,0,265.2,-89.9,98,,,,,,,0,32,155.8399,47.57218,14,Waypoint,
9800,2022-06-17 12:36:01,60.8921912339963,68.6824835002191,48.556432,,,156.824152,21.32546,0,1.88443575584,5.3176838972,16,5,0,156.824152,48.556432,0.07158208,2.0124508518,0,0,-6.71082,266.5, 2.4, 3.9,0,0,1024,1024,1024,1024,0,0,0,0,265.2,-89.9,98,,,,,,,0,32,156.824152,48.556432,14,Waypoint,
9900,2022-06-17 12:36:01,60.8921911866307,68.6824833563423,49.540684,,,157.808404,21.32546,0,1.90269363044,5.3485237932,16,5,0,157.808404,49.540684,0.07158208,2.0124508518,0,0,-6.71082,266.5, 3, 4.1,0,0,1024,1024,1024,1024,0,0,0,0,265.3,-89.9,98,,,,,,,0,32,157.808404,49.540684,14,Waypoint,
10000,2022-06-17 12:36:01,60.89219139236,68.6824833853749,50.524936,,,158.792656,21.32546,0,1.8274770926,5.4237534544,16,5,0,158.792656,50.524936,0.07158208,2.0124508518,0,0,-6.71082,266.4, 2.8, 4.4,0,0,1024,1024,1024,1024,0,0,0,0,265.3,-89.9,98,,,,,,,0,32,158.792656,50.524936,14,Waypoint,
10100,2022-06-17 12:36:02,60.8921913663518,68.6824833105713,51.509188,,,159.776908,21.32546,0,1.83759192232,5.4400592292,16,5,0,159.776908,51.509188,0.07158208,2.0124508518,0,0,-6.71082,266.5, 2.5, 4,0,0,1024,1024,1024,1024,0,0,0,0,265.3,-89.9,98,,,,,,,0,32,159.776908,51.509188,14,Waypoint,
10200,2022-06-17 12:36:02,60.8921910975704,68.6824833620518,52.49344,,,160.76116,21.32546,0,1.93510832964,5.538550046,16,5,0,160.76116,52.49344,0.07158208,2.0124508518,0,0,-6.71082,266.5, 2.2, 4,0,0,1024,1024,1024,1024,0,0,0,0,265.3,-89.9,98,,,,,,,0,32,160.76116,52.49344,14,Waypoint,
10300,2022-06-17 12:36:02,60.8921910463337,68.6824833338971,53.477692,,,161.745412,21.32546,0,1.95400924888,5.557907002,16,5,0,161.745412,53.477692,0.07158208,2.0124508518,0,0,-6.71082,266.5, 2.1, 4.4,0,0,1024,1024,1024,1024,0,0,0,0,265.3,-89.9,98,,,,,,,0,32,161.745412,53.477692,14,Waypoint,
10400,2022-06-17 12:36:02,60.8921909801106,68.6824829912293,54.461944,,,162.729664,21.32546,0,1.98185045712,5.62335976,16,5,0,162.729664,54.461944,0.07158208,2.0124508518,0,0,-6.71082,266.5, 2.2, 4.4,0,0,1024,1024,1024,1024,0,0,0,0,265.3,-89.9,98,,,,,,,0,32,162.729664,54.461944,14,Waypoint,
10500,2022-06-17 12:36:02,60.8921909282871,68.6824829610506,55.446196,,,163.713916,21.32546,0,2.0011155496,5.6430119916,16,5,0,163.713916,55.446196,0.07158208,2.0124508518,0,0,-6.71082,266.5, 2.2, 4.5,0,0,1024,1024,1024,1024,0,0,0,0,265.3,-89.9,98,,,,,,,0,32,163.713916,55.446196,14,Waypoint,
10600,2022-06-17 12:36:02,60.8921907332242,68.6824830175891,56.430448,,,164.698168,21.32546,0,2.07133864896,5.7148623876,16,5,0,164.698168,56.430448,0.07158208,2.07133864896,0,0,-6.71082,266.5, 2.1, 4.5,0,0,1024,1024,1024,1024,0,0,0,0,265.3,-89.9,98,,,,,,,0,32,164.698168,56.430448,14,Waypoint,
10700,2022-06-17 12:36:02,60.8921906683023,68.6824830119819,57.4147,,,165.68242,21.32546,0,2.09503943712,5.7385828608,16,5,0,165.68242,57.4147,0.07158208,2.09503943712,0,0,-6.71082,266.5, 2.1, 4.8,0,0,1024,1024,1024,1024,0,0,0,0,265.3,-89.9,98,,,,,,,0,32,165.68242,57.4147,14,Waypoint,
10800,2022-06-17 12:36:02,60.8921905019917,68.68248296927,58.070868,,,166.338588,21.32546,0,2.1561024312,5.7997377184,16,5,0,166.338588,58.070868,0.07158208,2.1561024312,0,0,-6.71082,266.5, 2.2, 5,0,0,1024,1024,1024,1024,0,0,0,0,265.3,-89.9,98,,,,,,,0,32,166.338588,58.070868,14,Waypoint,
10900,2022-06-17 12:36:02,60.8921904426993,68.6824829785568,59.383204,,,167.650924,21.32546,0,2.17756240564,5.8214240708,16,5,0,167.650924,59.383204,0.07158208,2.17756240564,0,0,-6.71082,266.5, 2.1, 5,0,0,1024,1024,1024,1024,0,0,0,0,265.3,-89.9,98,,,,,,,0,32,167.650924,59.383204,14,Waypoint,
11000,2022-06-17 12:36:02,60.892190164967,68.6824830513373,60.039372,,,168.307092,21.32546,0,2.2778215952,5.92355662,16,5,0,168.307092,60.039372,0.07158208,2.2778215952,0,0,-6.71082,266.5, 1.9, 5.2,0,0,1024,1024,1024,1024,0,0,0,0,265.4,-89.9,98,,,,,,,0,32,168.307092,60.039372,14,Waypoint,
11100,2022-06-17 12:36:03,60.8921901049797,68.6824830779107,61.023624,,,169.291344,21.32546,0,2.29938327568,5.9459647572,16,5,0,169.291344,61.023624,0.07158208,2.29938327568,0,0,-6.71082,266.5, 1.8, 5.1,0,0,1024,1024,1024,1024,0,0,0,0,265.4,-89.9,98,,,,,,,0,32,169.291344,61.023624,14,Waypoint,
11200,2022-06-17 12:36:03,60.8921900157876,68.6824830975428,62.007876,,,170.275596,21.32546,0,2.33166674128,5.978674732,15,5,0,170.275596,62.007876,0.07158208,2.33166674128,0,0,-6.71082,266.6, 1.7, 5,0,0,1024,1024,1024,1024,0,0,0,0,265.4,-89.9,98,,,,,,,0,32,170.275596,62.007876,14,Waypoint,
11300,2022-06-17 12:36:03,60.8921899710441,68.6824831198907,62.992128,,,171.259848,21.32546,0,2.34774613812,5.9954726328,15,5,0,171.259848,62.992128,0.07158208,2.34774613812,0,0,-6.71082,266.6, 1.8, 4.8,0,0,1024,1024,1024,1024,0,0,0,0,265.4,-89.9,98,,,,,,,0,32,171.259848,62.992128,14,Waypoint,
11400,2022-06-17 12:36:03,60.8921898472368,68.6824833937665,63.97638,,,172.2441,21.32546,0,2.39074154632,6.061844026,16,5,0,172.2441,63.97638,0.07158208,2.39074154632,0,0,-6.71082,266.5, 1.8, 4.8,0,0,1024,1024,1024,1024,0,0,0,0,265.4,-89.9,98,,,,,,,0,32,172.2441,63.97638,14,Waypoint,
11500,2022-06-17 12:36:03,60.8921898071831,68.6824834537667,64.960632,,,173.228352,21.32546,0,2.40501648116,6.0799214544,16,5,0,173.228352,64.960632,0.07158208,2.40501648116,0,0,-6.71082,266.4, 1.6, 5,0,0,1024,1024,1024,1024,0,0,0,0,265.4,-89.9,98,,,,,,,0,32,173.228352,64.960632,14,Waypoint,
11600,2022-06-17 12:36:03,60.8921901069185,68.6824841386167,65.944884,,,174.212604,21.32546,0.0223694,2.29527238316,6.24343852,16,5,0,174.212604,65.944884,0.07158208,2.40501648116,0,0.223694,-6.71082,266.3, 1.3, 4.9,0,0,1024,1024,1024,1024,0,0,0,0,265.4,-89.9,98,,,,,,,0,32,174.212604,65.944884,14,Waypoint,
11700,2022-06-17 12:36:03,60.8921901153039,68.6824842390948,66.929136,,,175.196856,21.32546,0,2.29269364292,6.2615159484,16,5,0,175.196856,66.929136,0.07158208,2.40501648116,0,0,-6.71082,266.3, 0.9, 4.5,0,0,1024,1024,1024,1024,0,0,0,0,265.4,-89.9,98,,,,,,,0,32,175.196856,66.929136,14,Waypoint,
11800,2022-06-17 12:36:03,60.8921900311723,68.6824844382765,67.913388,,,176.181108,21.32546,0,2.32471464132,6.3083335352,16,5,0,176.181108,67.913388,0.07158208,2.40501648116,0,0,-6.71082,266.3, 0.9, 4.3,0,0,1024,1024,1024,1024,0,0,0,0,265.4,-89.9,98,,,,,,,0,32,176.181108,67.913388,14,Waypoint,
11900,2022-06-17 12:36:03,60.8921900281867,68.6824845018105,69.225724,,,177.493444,21.32546,0,2.32634193796,6.3196852416,16,5,0,177.493444,69.225724,0.07158208,2.40501648116,0,0,-6.71082,266.3, 1, 4.4,0,0,1024,1024,1024,1024,0,0,0,0,265.4,-89.9,98,,,,,,,0,32,177.493444,69.225724,14,Waypoint,
12000,2022-06-17 12:36:03,60.8921897443114,68.6824847675079,69.881892,,,178.149612,21.32546,0,2.43251648204,6.4334647728,16,5,0,178.149612,69.881892,0.07158208,2.43251648204,0,0,-6.71082,266.4, 1.3, 4.8,0,0,1024,1024,1024,1024,0,0,0,0,265.4,-89.9,98,,,,,,,0,32,178.149612,69.881892,14,Waypoint,
12100,2022-06-17 12:36:04,60.8921897064177,68.6824848127407,70.866144,,,179.133864,21.32546,0,2.44686359536,6.449475272,16,5,0,179.133864,70.866144,0.07158208,2.44686359536,0,0,-6.71082,266.4, 1.4, 5.3,0,0,1024,1024,1024,1024,0,0,0,0,265.4,-89.9,98,,,,,,,0,32,179.133864,70.866144,14,Waypoint,
12200,2022-06-17 12:36:04,60.8921897428165,68.6824852701698,71.850396,,,180.118116,21.32546,0,2.44070873952,6.5317259308,16,5,0,180.118116,71.850396,0.07158208,2.44686359536,0,0,-6.71082,266.4, 1.3, 5.3,0,0,1024,1024,1024,1024,0,0,0,0,265.4,-89.9,98,,,,,,,0,32,180.118116,71.850396,14,Waypoint,
12300,2022-06-17 12:36:04,60.892189726988,68.6824853291706,72.834648,,,181.102368,21.32546,0,2.44755913344,6.5436681884,16,5,0,181.102368,72.834648,0.07158208,2.44755913344,0,0,-6.71082,266.4, 1.2, 5.2,0,0,1024,1024,1024,1024,0,0,0,0,265.4,-89.9,98,,,,,,,0,32,181.102368,72.834648,14,Waypoint,
12400,2022-06-17 12:36:04,60.8921896590671,68.682485237213,73.8189,,,182.08662,21.32546,0,2.47050860924,6.5733597904,16,5,0,182.08662,73.8189,0.07158208,2.47050860924,0,0,-6.71082,266.4, 1.4, 5.1,0,0,1024,1024,1024,1024,0,0,0,0,265.5,-89.9,98,,,,,,,0,32,182.08662,73.8189,14,Waypoint,
12500,2022-06-17 12:36:04,60.8921896531987,68.6824852603963,74.803152,,,183.070872,21.32546,0,2.47305126024,6.5779857748,16,5,0,183.070872,74.803152,0.07158208,2.47305126024,0,0,-6.71082,266.4, 1.5, 5,0,0,1024,1024,1024,1024,0,0,0,0,265.5,-89.9,98,,,,,,,0,32,183.070872,74.803152,14,Waypoint,
12600,2022-06-17 12:36:04,60.8921897448891,68.6824857014053,75.787404,,,184.055124,21.32546,0,2.44908800488,6.6631235728,16,5,0,184.055124,75.787404,0.07158208,2.47305126024,0,0,-6.71082,266.4, 1.4, 4.8,0,0,1024,1024,1024,1024,0,0,0,0,265.5,-89.9,98,,,,,,,0,32,184.055124,75.787404,14,Waypoint,
12700,2022-06-17 12:36:04,60.8921897624851,68.6824857561112,76.771656,,,185.039376,21.32546,0,2.44405847716,6.6747377464,16,5,0,185.039376,76.771656,0.07158208,2.47305126024,0,0,-6.71082,266.4, 1.3, 4.6,0,0,1024,1024,1024,1024,0,0,0,0,265.5,-89.9,98,,,,,,,0,32,185.039376,76.771656,14,Waypoint,
12800,2022-06-17 12:36:04,60.8921900967961,68.6824861951445,77.755908,,,186.023628,21.32546,0,2.33599416924,6.8194884072,16,5,0,186.023628,77.755908,0.07158208,2.47305126024,0,0,-6.934514,266.3, 1.1, 4.5,0,0,1024,1024,1024,1024,0,0,0,0,265.5,-89.9,98,,,,,,,0,32,186.023628,77.755908,14,Waypoint,
12900,2022-06-17 12:36:04,60.8921901486781,68.6824862659452,78.74016,,,187.00788,21.32546,0,2.31967199024,6.8422246284,16,5,0,187.00788,78.74016,0.07158208,2.47305126024,0,0,-6.934514,266.3, 0.9, 4.1,0,0,1024,1024,1024,1024,0,0,0,0,265.5,-89.9,97,,,,,,,0,32,187.00788,78.74016,14,Waypoint,
13000,2022-06-17 12:36:04,60.8921900810281,68.6824863425994,79.724412,,,187.992132,21.32546,0,2.34646332968,6.870407044,16,5,0,187.992132,79.724412,0.07158208,2.47305126024,0,0,-6.934514,266.3, 1.1, 4.1,0,0,1024,1024,1024,1024,0,0,0,0,265.5,-89.9,97,,,,,,,0,32,187.992132,79.724412,14,Waypoint,
13100,2022-06-17 12:36:05,60.8921901130942,68.6824863879093,80.708664,,,188.976384,21.32546,0,2.33651910364,6.8845802728,16,5,0,188.976384,80.708664,0.07158208,2.47305126024,0,0,-6.71082,266.3, 1.4, 4.3,0,0,1024,1024,1024,1024,0,0,0,0,265.5,-89.9,97,,,,,,,0,32,188.976384,80.708664,14,Waypoint,
13200,2022-06-17 12:36:05,60.8921904738937,68.6824866263674,81.692916,,,189.960636,21.32546,0,2.21656175072,7.0228676788,16,5,0,189.960636,81.692916,0.07158208,2.47305126024,0,0,-6.71082,266.3, 1.3, 4.1,0,0,1024,1024,1024,1024,0,0,0,0,265.5,-89.9,97,,,,,,,0,32,189.960636,81.692916,14,Waypoint,
13300,2022-06-17 12:36:05,60.8921905300275,68.6824866824128,82.677168,,,190.944888,21.32546,0,2.19886161892,7.0456367084,16,5,0,190.944888,82.677168,0.07158208,2.47305126024,0,0,-6.71082,266.4, 1, 3.7,0,0,1024,1024,1024,1024,0,0,0,0,265.5,-89.9,97,,,,,,,0,32,190.944888,82.677168,14,Waypoint,
13400,2022-06-17 12:36:05,60.8921906811136,68.6824871093215,83.66142,,,191.92914,21.32546,0,2.16430125036,7.1393374988,16,5,0,191.92914,83.66142,0.07158208,2.47305126024,0,0,-6.934514,266.4, 0.9, 3.6,0,0,1024,1024,1024,1024,0,0,0,0,265.5,-89.9,97,,,,,,,0,32,191.92914,83.66142,14,Waypoint,
13500,2022-06-17 12:36:05,60.892190721685,68.6824871827776,84.645672,,,192.913392,21.32546,0,2.15359586944,7.1590553472,16,5,0,192.913392,84.645672,0.07158208,2.47305126024,0,0,-6.934514,266.3, 0.7, 3.8,0,0,1024,1024,1024,1024,0,0,0,0,265.5,-89.9,97,,,,,,,0,32,192.913392,84.645672,14,Waypoint,
13600,2022-06-17 12:36:05,60.8921906939297,68.6824869569367,85.629924,,,193.897644,21.32546,0,2.15269363844,7.2003939312,16,5,0,193.897644,85.629924,0.07158208,2.47305126024,0,0,-6.934514,266.3, 0.8, 4.1,0,0,1024,1024,1024,1024,0,0,0,0,265.5,-89.9,97,,,,,,,0,32,193.897644,85.629924,14,Waypoint,
13700,2022-06-17 12:36:05,60.892190708213,68.6824869622365,86.614176,,,194.881896,21.32546,0,2.14789705036,7.205708892,16,5,0,194.881896,86.614176,0.07158208,2.47305126024,0,0,-6.934514,266.3, 1.1, 4.6,0,0,1024,1024,1024,1024,0,0,0,0,265.5,-89.9,97,,,,,,,0,32,194.881896,86.614176,14,Waypoint,
13800,2022-06-17 12:36:05,60.8921907261506,68.6824870712212,87.598428,,,195.866148,21.32546,0,2.14666017368,7.2261157168,16,5,0,195.866148,87.598428,0.07158208,2.47305126024,0,0,-6.934514,266.4, 1.4, 4.6,0,0,1024,1024,1024,1024,0,0,0,0,265.5,-89.9,97,,,,,,,0,32,195.866148,87.598428,14,Waypoint,
13900,2022-06-17 12:36:05,60.892190738336,68.6824870675917,88.58268,,,196.8504,21.32546,0,2.14220151212,7.2306104676,16,5,0,196.8504,88.58268,0.07158208,2.47305126024,0,0,-6.934514,266.3, 1.7, 4.6,0,0,1024,1024,1024,1024,0,0,0,0,265.5,-89.9,97,,,,,,,0,32,196.8504,88.58268,14,Waypoint,
14000,2022-06-17 12:36:05,60.8921908278926,68.682486808642,89.566932,,,197.834652,21.32546,0,2.0987369438,7.2870081072,16,5,0,197.834652,89.566932,0.07158208,2.47305126024,0,0,-6.934514,266.3, 1.5, 4.6,0,0,1024,1024,1024,1024,0,0,0,0,265.5,-89.9,97,,,,,,,0,32,197.834652,89.566932,14,Waypoint,
14100,2022-06-17 12:36:06,60.8921908432719,68.6824867814737,90.551184,,,198.818904,21.32546,0,2.09209652364,7.2943899972,16,5,0,198.818904,90.551184,0.07158208,2.47305126024,0,0,-6.71082,266.4, 1.7, 4.5,0,0,1024,1024,1024,1024,0,0,0,0,265.5,-89.9,97,,,,,,,0,32,198.818904,90.551184,14,Waypoint,
14200,2022-06-17 12:36:06,60.8921910961633,68.6824862155783,91.535436,,,199.803156,21.32546,0,1.97909455152,7.430774516,16,5,0,199.803156,91.535436,0.07158208,2.47305126024,0,0,-6.71082,266.4, 1.6, 4.6,0,0,1024,1024,1024,1024,0,0,0,0,265.5,-89.9,97,,,,,,,0,32,199.803156,91.535436,14,Waypoint,
14300,2022-06-17 12:36:06,60.8921911301483,68.6824861416836,92.519688,,,200.787408,21.32546,0,1.96421266128,7.448819136,16,5,0,200.787408,92.519688,0.07158208,2.47305126024,0,0,-6.71082,266.4, 2.2, 4.3,0,0,1024,1024,1024,1024,0,0,0,0,265.6,-89.9,97,,,,,,,0,32,200.787408,92.519688,14,Waypoint,
14400,2022-06-17 12:36:06,60.8921911979278,68.6824859891485,93.50394,,,201.77166,21.32546,0,1.9345144976,7.4854989272,16,5,0,201.77166,93.50394,0.07158208,2.47305126024,0,0,-6.71082,266.4, 2.4, 4,0,0,1024,1024,1024,1024,0,0,0,0,265.6,-89.9,97,,,,,,,0,32,201.77166,93.50394,14,Waypoint,
14500,2022-06-17 12:36:06,60.8921912295308,68.6824859426362,94.488192,,,202.755912,21.32546,0,1.92159454968,7.499672156,16,5,0,202.755912,94.488192,0.07158208,2.47305126024,0,0,-6.71082,266.4, 2.3, 3.9,0,0,1024,1024,1024,1024,0,0,0,0,265.6,-89.9,97,,,,,,,0,32,202.755912,94.488192,14,Waypoint,
14600,2022-06-17 12:36:06,60.8921912913648,68.6824858579464,95.472444,,,203.740164,21.32546,0,1.89657486384,7.5267718944,16,5,0,203.740164,95.472444,0.07158208,2.47305126024,0,0,-6.71082,266.4, 2.1, 3.9,0,0,1024,1024,1024,1024,0,0,0,0,265.6,-89.9,97,,,,,,,0,32,203.740164,95.472444,14,Waypoint,
14700,2022-06-17 12:36:06,60.8921913142064,68.682485843474,96.456696,,,204.724416,21.32546,0,1.88790688456,7.5354989288,16,5,0,204.724416,96.456696,0.07158208,2.47305126024,0,0,-6.71082,266.4, 2.1, 3.9,0,0,1024,1024,1024,1024,0,0,0,0,265.6,-89.9,97,,,,,,,0,32,204.724416,96.456696,14,Waypoint,
14800,2022-06-17 12:36:06,60.892191667527,68.6824854602016,97.769032,,,206.036752,21.32546,0,1.74901908484,7.68126665,16,5,0,206.036752,97.769032,0.07158208,2.47305126024,0,0,-6.71082,266.3, 2, 3.9,0,0,1024,1024,1024,1024,0,0,0,0,265.6,-89.9,97,,,,,,,0,32,206.036752,97.769032,14,Waypoint,
14900,2022-06-17 12:36:06,60.8921917143659,68.6824854356496,98.4252,,,206.69292,21.32546,0,1.7314469058,7.6988847608,16,5,0,206.69292,98.4252,0.07158208,2.47305126024,0,0,-6.71082,266.3, 1.7, 3.7,0,0,1024,1024,1024,1024,0,0,0,0,265.6,-89.9,97,,,,,,,0,32,206.69292,98.4252,14,Waypoint,
15000,2022-06-17 12:36:06,60.8921920340096,68.6824852947185,99.737536,,,208.005256,21.32546,0,1.61231632456,7.8181761032,16,5,0,208.005256,99.737536,0.07158208,2.47305126024,0,0,-6.71082,266.3, 1.6, 3.6,0,0,1024,1024,1024,1024,0,0,0,0,265.6,-89.9,97,,,,,,,0,32,208.005256,99.737536,14,Waypoint,
15100,2022-06-17 12:36:07,60.8921920899739,68.6824852411876,100.721788,,,208.989508,21.32546,0,1.59065293804,7.8406826656,16,5,0,208.989508,100.721788,0.07158208,2.47305126024,0,0,-6.71082,266.4, 1.9, 3.2,0,0,1024,1024,1024,1024,0,0,0,0,265.6,-89.9,97,,,,,,,0,32,208.989508,100.721788,14,Waypoint,
15200,2022-06-17 12:36:07,60.8921917603255,68.6824850125102,101.70604,,,209.97376,21.32546,0,1.70413063196,7.9676183652,16,5,0,209.97376,101.70604,0.07158208,2.47305126024,0,0,-6.71082,266.4, 2.1, 3.5,0,0,1024,1024,1024,1024,0,0,0,0,265.6,-89.9,97,,,,,,,0,32,209.97376,101.70604,14,Waypoint,
15300,2022-06-17 12:36:07,60.8921917592024,68.6824849510461,102.690292,,,210.958012,21.32546,0,1.70324480516,7.9785435624,16,5,0,210.958012,102.690292,0.07158208,2.47305126024,0,0,-6.71082,266.4, 2.4, 4,0,0,1024,1024,1024,1024,0,0,0,0,265.6,-89.9,97,,,,,,,0,32,210.958012,102.690292,14,Waypoint,
15400,2022-06-17 12:36:07,60.8921916576983,68.6824847797927,103.674544,,,211.942264,21.32546,0,1.7368602918,8.0264438264,16,5,0,211.942264,103.674544,0.07158208,2.47305126024,0,0,-6.71082,266.4, 2.4, 4.1,0,0,1024,1024,1024,1024,0,0,0,0,265.6,-89.9,97,,,,,,,0,32,211.942264,103.674544,14,Waypoint,
15500,2022-06-17 12:36:07,60.8921916504718,68.6824847445212,104.658796,,,212.926516,21.32546,0,1.73889769344,8.0332351652,16,5,0,212.926516,104.658796,0.07158208,2.47305126024,0,0,-6.71082,266.4, 2.3, 4,0,0,1024,1024,1024,1024,0,0,0,0,265.6,-89.9,97,,,,,,,0,32,212.926516,104.658796,14,Waypoint,
15600,2022-06-17 12:36:07,60.89219149557,68.6824845109644,105.643048,,,213.910768,21.32546,0,1.79195871876,8.103346716,16,5,0,213.910768,105.643048,0.07158208,2.47305126024,0,0,-6.71082,266.4, 2.2, 4.1,0,0,1024,1024,1024,1024,0,0,0,0,265.6,-89.9,97,,,,,,,0,32,213.910768,105.643048,14,Waypoint,
15700,2022-06-17 12:36:07,60.8921914824676,68.682484482084,106.299216,,,214.566936,21.32546,0,1.79639441444,8.1103349052,16,5,0,214.566936,106.299216,0.07158208,2.47305126024,0,0,-6.71082,266.4, 2.2, 4.2,0,0,1024,1024,1024,1024,0,0,0,0,265.6,-89.9,97,,,,,,,0,32,214.566936,106.299216,14,Waypoint,
15800,2022-06-17 12:36:07,60.8921913923383,68.6824843763634,107.283468,,,215.551188,21.32546,0,1.82814638396,8.1481957988,16,5,0,215.551188,107.283468,0.07158208,2.47305126024,0,0,-6.71082,266.4, 2.2, 4.1,0,0,1024,1024,1024,1024,0,0,0,0,265.6,-89.9,97,,,,,,,0,32,215.551188,107.283468,14,Waypoint,
15900,2022-06-17 12:36:07,60.8921913818807,68.6824843589879,108.26772,,,216.53544,21.32546,0,1.83179795888,8.1531170588,16,5,0,216.53544,108.26772,0.07158208,2.47305126024,0,0,-6.71082,266.3, 2, 3.9,0,0,1024,1024,1024,1024,0,0,0,0,265.6,-89.9,97,,,,,,,0,32,216.53544,108.26772,14,Waypoint,
16000,2022-06-17 12:36:08,60.8921906898605,68.6824843393296,109.251972,,,217.519692,21.32546,0,2.08385177272,8.4056105052,16,5,0,217.519692,109.251972,0.07158208,2.47305126024,0,0,-6.71082,266.3, 2, 4.2,0,0,1024,1024,1024,1024,0,0,0,0,265.6,-89.9,97,,,,,,,0,32,217.519692,109.251972,14,Waypoint,
16100,2022-06-17 12:36:08,60.892190616635,68.6824843285269,110.236224,,,218.503944,21.32546,0,2.1104659468,8.432414968,16,5,0,218.503944,110.236224,0.07158208,2.47305126024,0,0,-6.71082,266.4, 2.1, 5,0,0,1024,1024,1024,1024,0,0,0,0,265.6,-89.9,97,,,,,,,0,32,218.503944,110.236224,14,Waypoint,
16200,2022-06-17 12:36:08,60.8921903199779,68.6824844079432,111.220476,,,219.488196,21.32546,0,2.2192093886,8.5415685148,16,5,0,219.488196,111.220476,0.07158208,2.47305126024,0,0,-6.934514,266.4, 2.3, 5.3,0,0,1024,1024,1024,1024,0,0,0,0,265.6,-89.9,97,,,,,,,0,32,219.488196,111.220476,14,Waypoint,
16300,2022-06-17 12:36:08,60.8921902537447,68.6824844168357,112.204728,,,220.472448,21.32546,0,2.2434219878,8.565781114,16,5,0,220.472448,112.204728,0.07158208,2.47305126024,0,0,-6.934514,266.4, 2.1, 5.3,0,0,1024,1024,1024,1024,0,0,0,0,265.6,-89.9,97,,,,,,,0,32,220.472448,112.204728,14,Waypoint,
16400,2022-06-17 12:36:08,60.8921898854502,68.6824847457126,113.18898,,,221.4567,21.32546,0,2.38087934128,8.71227062,16,5,0,221.4567,113.18898,0.07158208,2.47305126024,0,0,-6.71082,266.4, 1.9, 5.4,0,0,1024,1024,1024,1024,0,0,0,0,265.6,-89.9,97,,,,,,,0,32,221.4567,113.18898,14,Waypoint,
16500,2022-06-17 12:36:08,60.8921898219622,68.6824847850479,114.173232,,,222.440952,21.32546,0,2.40446530004,8.7364504108,16,5,0,222.440952,114.173232,0.07158208,2.47305126024,0,0,-6.71082,266.3, 1.7, 5.6,0,0,1024,1024,1024,1024,0,0,0,0,265.6,-89.9,97,,,,,,,0,32,222.440952,114.173232,14,Waypoint,
16600,2022-06-17 12:36:08,60.8921899534042,68.6824850255699,115.157484,,,223.425204,21.32546,0,2.36004600728,8.8006564496,16,5,0,223.425204,115.157484,0.07158208,2.47305126024,0,0,-6.71082,266.3, 1.7, 5.4,0,0,1024,1024,1024,1024,0,0,0,0,265.6,-89.9,97,,,,,,,0,32,223.425204,115.157484,14,Waypoint,
16700,2022-06-17 12:36:08,60.8921899439875,68.6824850709832,116.141736,,,224.409456,21.32546,0,2.36419626988,8.8094162924,16,5,0,224.409456,116.141736,0.07158208,2.47305126024,0,0,-6.934514,266.3, 1.6, 4.8,0,0,1024,1024,1024,1024,0,0,0,0,265.6,-89.9,97,,,,,,,0,32,224.409456,116.141736,14,Waypoint,
16800,2022-06-17 12:36:08,60.8921901362737,68.68248508875,117.125988,,,225.393708,21.32546,0,2.2946523044,8.8796590768,16,5,0,225.393708,117.125988,0.07158208,2.47305126024,0,0,-6.934514,266.3, 1.6, 4.2,0,0,1024,1024,1024,1024,0,0,0,0,265.6,-89.9,97,,,,,,,0,32,225.393708,117.125988,14,Waypoint,
16900,2022-06-17 12:36:08,60.8921901557142,68.682485116703,118.11024,,,226.37796,21.32546,0,2.28807750104,8.8883204944,16,5,0,226.37796,118.11024,0.07158208,2.47305126024,0,0,-6.934514,266.4, 1.8, 4,0,0,1024,1024,1024,1024,0,0,0,0,265.6,-89.9,97,,,,,,,0,32,226.37796,118.11024,14,Waypoint,
17000,2022-06-17 12:36:08,60.892190202226,68.6824852924946,119.094492,,,227.362212,21.32546,0,2.27451122764,8.9238191832,16,5,0,227.362212,119.094492,0.07158208,2.47305126024,0,0,-6.934514,266.3, 1.7, 4.1,0,0,1024,1024,1024,1024,0,0,0,0,265.6,-89.9,97,,,,,,,0,32,227.362212,119.094492,14,Waypoint,
17100,2022-06-17 12:36:09,60.892190212211,68.6824853151765,120.078744,,,228.346464,21.32546,0,2.27134849788,8.9292653776,16,5,0,228.346464,120.078744,0.07158208,2.47305126024,0,0,-6.71082,266.4, 1.7, 4.3,0,0,1024,1024,1024,1024,0,0,0,0,265.6,-89.9,97,,,,,,,0,32,228.346464,120.078744,14,Waypoint,
17200,2022-06-17 12:36:09,60.8921901603958,68.6824860774815,121.062996,,,229.330716,21.32546,0,2.30948826288,9.0658795552,16,5,0,229.330716,121.062996,0.07158208,2.47305126024,0,0,-6.934514,266.4, 1.6, 4.5,0,0,1024,1024,1024,1024,0,0,0,0,265.6,-89.9,97,,,,,,,0,32,229.330716,121.062996,14,Waypoint,
17300,2022-06-17 12:36:09,60.8921901633848,68.6824861373022,122.047248,,,230.314968,21.32546,0,2.31026254112,9.0765422852,16,5,0,230.314968,122.047248,0.07158208,2.47305126024,0,0,-6.71082,266.4, 1.5, 4.7,0,0,1024,1024,1024,1024,0,0,0,0,265.6,-89.9,97,,,,,,,0,32,230.314968,122.047248,14,Waypoint,
17400,2022-06-17 12:36:09,60.8921901391623,68.6824861889367,123.0315,,,231.29922,21.32546,0,2.32059062544,9.0892719444,16,5,0,231.29922,123.0315,0.07158208,2.47305126024,0,0,-6.71082,266.5, 1.7, 4.6,0,0,1024,1024,1024,1024,0,0,0,0,265.7,-89.9,97,,,,,,,0,32,231.29922,123.0315,14,Waypoint,
17500,2022-06-17 12:36:09,60.8921901473181,68.6824862294073,124.015752,,,232.283472,21.32546,0,2.3189633288,9.0970475352,16,5,0,232.283472,124.015752,0.07158208,2.47305126024,0,0,-6.71082,266.5, 1.9, 4.3,0,0,1024,1024,1024,1024,0,0,0,0,265.7,-89.9,97,,,,,,,0,32,232.283472,124.015752,14,Waypoint,
17600,2022-06-17 12:36:09,60.8921903071569,68.6824863461739,125.000004,,,233.267724,21.32546,0,2.26562671292,9.1589241776,16,5,0,233.267724,125.000004,0.07158208,2.47305126024,0,0,-6.71082,266.4, 1.7, 4.1,0,0,1024,1024,1024,1024,0,0,0,0,265.7,-89.9,97,,,,,,,0,32,233.267724,125.000004,14,Waypoint,
17700,2022-06-17 12:36:09,60.8921903303342,68.6824863938095,125.984256,,,234.251976,21.32546,0,2.25901582032,9.1708992436,16,5,0,234.251976,125.984256,0.07158208,2.47305126024,0,0,-6.71082,266.4, 1.5, 4,0,0,1024,1024,1024,1024,0,0,0,0,265.7,-89.9,97,,,,,,,0,32,234.251976,125.984256,14,Waypoint,
17800,2022-06-17 12:36:09,60.8921904473924,68.6824867222236,126.968508,,,235.236228,21.32546,0,2.22982618684,9.2431433404,16,5,0,235.236228,126.968508,0.07158208,2.47305126024,0,0,-6.71082,266.3, 1.3, 4.1,0,0,1024,1024,1024,1024,0,0,0,0,265.7,-89.9,97,,,,,,,0,32,235.236228,126.968508,14,Waypoint,
17900,2022-06-17 12:36:09,60.8921904695923,68.6824867753786,127.95276,,,236.22048,21.32546,0,2.22413392944,9.255577724,16,5,0,236.22048,127.95276,0.07158208,2.47305126024,0,0,-6.71082,266.3, 1.3, 4.1,0,0,1024,1024,1024,1024,0,0,0,0,265.7,-89.9,97,,,,,,,0,32,236.22048,127.95276,14,Waypoint,
18000,2022-06-17 12:36:09,60.8921905460279,68.682486893198,128.937012,,,237.204732,21.32546,0,2.20208012296,9.2904530532,16,5,0,237.204732,128.937012,0.07158208,2.47305126024,0,0,-6.934514,266.3, 1.3, 4.1,0,0,1024,1024,1024,1024,0,0,0,0,265.7,-89.9,97,,,,,,,0,32,237.204732,128.937012,14,Waypoint,
18100,2022-06-17 12:36:10,60.8921905667492,68.6824869219667,129.921264,,,238.188984,21.32546,0,2.19601713064,9.2995737884,16,5,0,238.188984,129.921264,0.07158208,2.47305126024,0,0,-6.71082,266.3, 1.2, 4.2,0,0,1024,1024,1024,1024,0,0,0,0,265.7,-89.9,97,,,,,,,0,32,238.188984,129.921264,14,Waypoint,
18200,2022-06-17 12:36:10,60.8921909393124,68.6824870109563,130.905516,,,239.173236,21.32546,0,2.0688812998,9.4364176248,16,5,0,239.173236,130.905516,0.07158208,2.47305126024,0,0,-6.71082,266.3, 1.2, 3.9,0,0,1024,1024,1024,1024,0,0,0,0,265.7,-89.9,97,,,,,,,0,32,239.173236,130.905516,14,Waypoint,
18300,2022-06-17 12:36:10,60.8921909803419,68.6824869940376,132.217852,,,240.485572,21.32546,0,2.0536582022,9.4516735308,16,5,0,240.485572,132.217852,0.07158208,2.47305126024,0,0,-6.71082,266.3, 1.5, 3.6,0,0,1024,1024,1024,1024,0,0,0,0,265.7,-89.9,97,,,,,,,0,32,240.485572,132.217852,14,Waypoint,
18400,2022-06-17 12:36:10,60.8921911393337,68.6824869435639,133.202104,,,241.469824,21.32546,0,1.99541673052,9.5103677584,16,5,0,241.469824,133.202104,0.07158208,2.47305126024,0,0,-6.934514,266.3, 1.6, 3.4,0,0,1024,1024,1024,1024,0,0,0,0,265.7,-89.9,97,,,,,,,0,32,241.469824,133.202104,14,Waypoint,
18500,2022-06-17 12:36:10,60.8921911631627,68.6824868874205,134.186356,,,242.454076,21.32546,0,1.98432421048,9.5235895436,16,5,0,242.454076,134.186356,0.07158208,2.47305126024,0,0,-6.934514,266.3, 1.8, 3.4,0,0,1024,1024,1024,1024,0,0,0,0,265.7,-89.9,97,,,,,,,0,32,242.454076,134.186356,14,Waypoint,
18600,2022-06-17 12:36:10,60.892191150728,68.6824867968702,135.170608,,,243.438328,21.32546,0,1.9843832656,9.5402890192,16,5,0,243.438328,135.170608,0.07158208,2.47305126024,0,0,-6.934514,266.4, 2.1, 3.8,0,0,1024,1024,1024,1024,0,0,0,0,265.7,-89.9,97,,,,,,,0,32,243.438328,135.170608,14,Waypoint,
18700,2022-06-17 12:36:10,60.892191145674,68.6824867119944,136.15486,,,244.42258,21.32546,0,1.98223759624,9.5554793084,16,5,0,244.42258,136.15486,0.07158208,2.47305126024,0,0,-6.934514,266.6, 2.4, 4.2,0,0,1024,1024,1024,1024,0,0,0,0,265.7,-89.9,97,,,,,,,0,32,244.42258,136.15486,14,Waypoint,
18800,2022-06-17 12:36:10,60.8921914796191,68.6824867432628,137.139112,,,245.406832,21.32546,0,1.8662730256,9.6774281312,16,5,0,245.406832,137.139112,0.07158208,2.47305126024,0,0,-6.71082,266.5, 2.6, 4.2,0,0,1024,1024,1024,1024,0,0,0,0,265.7,-89.9,97,,,,,,,0,32,245.406832,137.139112,14,Waypoint,
18900,2022-06-17 12:36:10,60.8921915062933,68.6824866733454,137.79528,,,246.063,21.32546,0,1.85352040052,9.6932089716,16,5,0,246.063,137.79528,0.07158208,2.47305126024,0,0,-6.71082,266.5, 2.7, 3.9,0,0,1024,1024,1024,1024,0,0,0,0,265.7,-89.9,97,,,,,,,0,32,246.063,137.79528,14,Waypoint,
19000,2022-06-17 12:36:10,60.8921912775779,68.6824865037535,138.779532,,,247.047252,21.32546,0,1.92637145272,9.7819228852,16,5,0,247.047252,138.779532,0.07158208,2.47305126024,0,0,-6.71082,266.5, 2.8, 3.9,0,0,1024,1024,1024,1024,0,0,0,0,265.7,-89.9,97,,,,,,,0,32,247.047252,138.779532,14,Waypoint,
19100,2022-06-17 12:36:11,60.8921912819615,68.6824864622124,139.763784,,,248.031504,21.32546,0,1.92302499592,9.7894688172,16,5,0,248.031504,139.763784,0.07158208,2.47305126024,0,0,-6.71082,266.5, 2.8, 4,0,0,1024,1024,1024,1024,0,0,0,0,265.7,-89.9,97,,,,,,,0,32,248.031504,139.763784,14,Waypoint,
19200,2022-06-17 12:36:11,60.8921915734033,68.6824862441792,141.07612,,,249.34384,21.32546,0,1.810531554,9.9026249888,16,5,0,249.34384,141.07612,0.07158208,2.47305126024,0,0,-6.71082,266.4, 2.5, 3.6,0,0,1024,1024,1024,1024,0,0,0,0,265.7,-89.9,97,,,,,,,0,32,249.34384,141.07612,14,Waypoint,
19300,2022-06-17 12:36:11,60.8921916020745,68.6824862301712,142.060372,,,250.328092,21.32546,0,1.79977696048,9.913386144,16,5,0,250.328092,142.060372,0.07158208,2.47305126024,0,0,-6.71082,266.4, 2.2, 3.4,0,0,1024,1024,1024,1024,0,0,0,0,265.7,-89.9,97,,,,,,,0,32,250.328092,142.060372,14,Waypoint,
19400,2022-06-17 12:36:11,60.8921922884085,68.6824860094744,143.044624,,,251.312344,21.32546,0,1.54732944584,10.166831034,16,5,0,251.312344,143.044624,0.07158208,2.47305126024,0,0,-6.934514,266.4, 2, 2.8,0,0,1024,1024,1024,1024,0,0,0,0,265.7,-89.9,97,,,,,,,0,32,251.312344,143.044624,14,Waypoint,
19500,2022-06-17 12:36:11,60.8921923557265,68.6824859812588,144.028876,,,252.296596,21.32546,0,1.5222933558,10.1918966516,16,5,0,252.296596,144.028876,0.07158208,2.47305126024,0,0,-6.934514,266.3, 1.8, 2.5,0,0,1024,1024,1024,1024,0,0,0,0,265.7,-89.9,97,,,,,,,0,32,252.296596,144.028876,14,Waypoint,
19600,2022-06-17 12:36:11,60.8921927365673,68.68248578494,145.013128,,,253.280848,21.32546,0,1.37904531972,10.335138126,16,5,0,253.280848,145.013128,0.07158208,2.47305126024,0,0,-6.934514,266.4, 2, 2.8,0,0,1024,1024,1024,1024,0,0,0,0,265.7,-89.9,97,,,,,,,0,32,253.280848,145.013128,14,Waypoint,
19700,2022-06-17 12:36:11,60.8921927803068,68.6824856989514,146.325464,,,254.593184,21.32546,0,1.35982287816,10.3572181792,16,5,0,254.593184,146.325464,0.07158208,2.47305126024,0,0,-6.71082,266.5, 2.3, 3.1,0,0,1024,1024,1024,1024,0,0,0,0,265.7,-89.9,97,,,,,,,0,32,254.593184,146.325464,14,Waypoint,
19800,2022-06-17 12:36:11,60.89219262923,68.6824855667835,146.981632,,,255.249352,21.32546,0,1.40807747288,10.4171263176,16,5,0,255.249352,146.981632,0.07158208,2.47305126024,0,0,-6.71082,266.5, 3, 4.1,0,0,1024,1024,1024,1024,0,0,0,0,265.7,-89.9,97,,,,,,,0,32,255.249352,146.981632,14,Waypoint,
19900,2022-06-17 12:36:11,60.8921926240051,68.6824854889819,147.965884,,,256.233604,21.32546,0,1.4070046382,10.4310698876,16,5,0,256.233604,147.965884,0.07158208,2.47305126024,0,0,-6.487126,266.5, 3.5, 4,0,0,1024,1024,1024,1024,0,0,0,0,265.7,-89.9,97,,,,,,,0,32,256.233604,147.965884,14,Waypoint,
20000,2022-06-17 12:36:11,60.8921922889928,68.682485357618,148.950136,,,257.217856,21.32546,0,1.52248692536,10.5555121488,16,5,0,257.217856,148.950136,0.07158208,2.47305126024,0,0,-6.487126,266.5, 3.5, 4.1,0,0,1024,1024,1024,1024,0,0,0,0,265.7,-89.9,97,,,,,,,0,32,257.217856,148.950136,14,Waypoint,
20100,2022-06-17 12:36:12,60.8921922557146,68.6824853522758,149.934388,,,258.202108,21.32546,0,1.53427498348,10.5676840652,16,5,0,258.202108,149.934388,0.07158208,2.47305126024,0,0,-6.71082,266.5, 3.1, 4.6,0,0,1024,1024,1024,1024,0,0,0,0,265.7,-89.9,97,,,,,,,0,32,258.202108,149.934388,14,Waypoint,
